{
  "coordinates": {
    "default": "hg19",
    "higlassMap": {
      "hg19": "hg19",
      "hg19_chr": "hg19",
      "hg38": "hg38",
      "hg38_chr": "hg38"
    },
    "sets": {
      "hg19": [
        {
          "chromosome": "1",
          "startPoint": 1,
          "endPoint": 249250621,
          "color": "#1f77b4"
        },
        {
          "chromosome": "2",
          "startPoint": 1,
          "endPoint": 243199373,
          "color": "#ff7f0e"
        },
        {
          "chromosome": "3",
          "startPoint": 1,
          "endPoint": 198022430,
          "color": "#2ca02c"
        },
        {
          "chromosome": "4",
          "startPoint": 1,
          "endPoint": 191154276,
          "color": "#d62728"
        },
        {
          "chromosome": "5",
          "startPoint": 1,
          "endPoint": 180915260,
          "color": "#9467bd"
        },
        {
          "chromosome": "6",
          "startPoint": 1,
          "endPoint": 171115067,
          "color": "#8c564b"
        },
        {
          "chromosome": "7",
          "startPoint": 1,
          "endPoint": 159138663,
          "color": "#e377c2"
        },
        {
          "chromosome": "8",
          "startPoint": 1,
          "endPoint": 146364022,
          "color": "#7f7f7f"
        },
        {
          "chromosome": "9",
          "startPoint": 1,
          "endPoint": 141213431,
          "color": "#bcbd22"
        },
        {
          "chromosome": "10",
          "startPoint": 1,
          "endPoint": 135534747,
          "color": "#17becf"
        },
        {
          "chromosome": "11",
          "startPoint": 1,
          "endPoint": 135006516,
          "color": "#393b79"
        },
        {
          "chromosome": "12",
          "startPoint": 1,
          "endPoint": 133851895,
          "color": "#5254a3"
        },
        {
          "chromosome": "13",
          "startPoint": 1,
          "endPoint": 115169878,
          "color": "#6b6ecf"
        },
        {
          "chromosome": "14",
          "startPoint": 1,
          "endPoint": 107349540,
          "color": "#9c9ede"
        },
        {
          "chromosome": "15",
          "startPoint": 1,
          "endPoint": 102531392,
          "color": "#637939"
        },
        {
          "chromosome": "16",
          "startPoint": 1,
          "endPoint": 90354753,
          "color": "#8ca252"
        },
        {
          "chromosome": "17",
          "startPoint": 1,
          "endPoint": 81195210,
          "color": "#b5cf6b"
        },
        {
          "chromosome": "18",
          "startPoint": 1,
          "endPoint": 78077248,
          "color": "#cedb9c"
        },
        {
          "chromosome": "19",
          "startPoint": 1,
          "endPoint": 59128983,
          "color": "#8c6d31"
        },
        {
          "chromosome": "20",
          "startPoint": 1,
          "endPoint": 63025520,
          "color": "#bd9e39"
        },
        {
          "chromosome": "21",
          "startPoint": 1,
          "endPoint": 48129895,
          "color": "#e7ba52"
        },
        {
          "chromosome": "22",
          "startPoint": 1,
          "endPoint": 51304566,
          "color": "#e7cb94"
        },
        {
          "chromosome": "X",
          "startPoint": 1,
          "endPoint": 155270560,
          "color": "#843c39"
        },
        {
          "chromosome": "Y",
          "startPoint": 1,
          "endPoint": 59373566,
          "color": "#ad494a"
        },
        {
          "chromosome": "M",
          "startPoint": 1,
          "endPoint": 16571,
          "color": "#d6616b"
        }
      ],
      "hg19_chr": [
        {
          "chromosome": "chr1",
          "startPoint": 1,
          "endPoint": 249250621,
          "color": "#1f77b4"
        },
        {
          "chromosome": "chr2",
          "startPoint": 1,
          "endPoint": 243199373,
          "color": "#ff7f0e"
        },
        {
          "chromosome": "chr3",
          "startPoint": 1,
          "endPoint": 198022430,
          "color": "#2ca02c"
        },
        {
          "chromosome": "chr4",
          "startPoint": 1,
          "endPoint": 191154276,
          "color": "#d62728"
        },
        {
          "chromosome": "chr5",
          "startPoint": 1,
          "endPoint": 180915260,
          "color": "#9467bd"
        },
        {
          "chromosome": "chr6",
          "startPoint": 1,
          "endPoint": 171115067,
          "color": "#8c564b"
        },
        {
          "chromosome": "chr7",
          "startPoint": 1,
          "endPoint": 159138663,
          "color": "#e377c2"
        },
        {
          "chromosome": "chr8",
          "startPoint": 1,
          "endPoint": 146364022,
          "color": "#7f7f7f"
        },
        {
          "chromosome": "chr9",
          "startPoint": 1,
          "endPoint": 141213431,
          "color": "#bcbd22"
        },
        {
          "chromosome": "chr10",
          "startPoint": 1,
          "endPoint": 135534747,
          "color": "#17becf"
        },
        {
          "chromosome": "chr11",
          "startPoint": 1,
          "endPoint": 135006516,
          "color": "#393b79"
        },
        {
          "chromosome": "chr12",
          "startPoint": 1,
          "endPoint": 133851895,
          "color": "#5254a3"
        },
        {
          "chromosome": "chr13",
          "startPoint": 1,
          "endPoint": 115169878,
          "color": "#6b6ecf"
        },
        {
          "chromosome": "chr14",
          "startPoint": 1,
          "endPoint": 107349540,
          "color": "#9c9ede"
        },
        {
          "chromosome": "chr15",
          "startPoint": 1,
          "endPoint": 102531392,
          "color": "#637939"
        },
        {
          "chromosome": "chr16",
          "startPoint": 1,
          "endPoint": 90354753,
          "color": "#8ca252"
        },
        {
          "chromosome": "chr17",
          "startPoint": 1,
          "endPoint": 81195210,
          "color": "#b5cf6b"
        },
        {
          "chromosome": "chr18",
          "startPoint": 1,
          "endPoint": 78077248,
          "color": "#cedb9c"
        },
        {
          "chromosome": "chr19",
          "startPoint": 1,
          "endPoint": 59128983,
          "color": "#8c6d31"
        },
        {
          "chromosome": "chr20",
          "startPoint": 1,
          "endPoint": 63025520,
          "color": "#bd9e39"
        },
        {
          "chromosome": "chr21",
          "startPoint": 1,
          "endPoint": 48129895,
          "color": "#e7ba52"
        },
        {
          "chromosome": "chr22",
          "startPoint": 1,
          "endPoint": 51304566,
          "color": "#e7cb94"
        },
        {
          "chromosome": "chrX",
          "startPoint": 1,
          "endPoint": 155270560,
          "color": "#843c39"
        },
        {
          "chromosome": "chrY",
          "startPoint": 1,
          "endPoint": 59373566,
          "color": "#ad494a"
        },
        {
          "chromosome": "chrM",
          "startPoint": 1,
          "endPoint": 16571,
          "color": "#d6616b"
        }
      ],
      "hg38": [
        {
          "chromosome": "1",
          "startPoint": 1,
          "endPoint": 248956422,
          "color": "#1f77b4"
        },
        {
          "chromosome": "2",
          "startPoint": 1,
          "endPoint": 242193529,
          "color": "#ff7f0e"
        },
        {
          "chromosome": "3",
          "startPoint": 1,
          "endPoint": 198295559,
          "color": "#2ca02c"
        },
        {
          "chromosome": "4",
          "startPoint": 1,
          "endPoint": 190214555,
          "color": "#d62728"
        },
        {
          "chromosome": "5",
          "startPoint": 1,
          "endPoint": 181538259,
          "color": "#9467bd"
        },
        {
          "chromosome": "6",
          "startPoint": 1,
          "endPoint": 170805979,
          "color": "#8c564b"
        },
        {
          "chromosome": "7",
          "startPoint": 1,
          "endPoint": 159345973,
          "color": "#e377c2"
        },
        {
          "chromosome": "8",
          "startPoint": 1,
          "endPoint": 145138636,
          "color": "#7f7f7f"
        },
        {
          "chromosome": "9",
          "startPoint": 1,
          "endPoint": 138394717,
          "color": "#bcbd22"
        },
        {
          "chromosome": "10",
          "startPoint": 1,
          "endPoint": 133797422,
          "color": "#17becf"
        },
        {
          "chromosome": "11",
          "startPoint": 1,
          "endPoint": 135086622,
          "color": "#393b79"
        },
        {
          "chromosome": "12",
          "startPoint": 1,
          "endPoint": 133275309,
          "color": "#5254a3"
        },
        {
          "chromosome": "13",
          "startPoint": 1,
          "endPoint": 114364328,
          "color": "#6b6ecf"
        },
        {
          "chromosome": "14",
          "startPoint": 1,
          "endPoint": 107043718,
          "color": "#9c9ede"
        },
        {
          "chromosome": "15",
          "startPoint": 1,
          "endPoint": 101991189,
          "color": "#637939"
        },
        {
          "chromosome": "16",
          "startPoint": 1,
          "endPoint": 90338345,
          "color": "#8ca252"
        },
        {
          "chromosome": "17",
          "startPoint": 1,
          "endPoint": 83257441,
          "color": "#b5cf6b"
        },
        {
          "chromosome": "18",
          "startPoint": 1,
          "endPoint": 80373285,
          "color": "#cedb9c"
        },
        {
          "chromosome": "19",
          "startPoint": 1,
          "endPoint": 58617616,
          "color": "#8c6d31"
        },
        {
          "chromosome": "20",
          "startPoint": 1,
          "endPoint": 64444167,
          "color": "#bd9e39"
        },
        {
          "chromosome": "21",
          "startPoint": 1,
          "endPoint": 46709983,
          "color": "#e7ba52"
        },
        {
          "chromosome": "22",
          "startPoint": 1,
          "endPoint": 50818468,
          "color": "#e7cb94"
        },
        {
          "chromosome": "X",
          "startPoint": 1,
          "endPoint": 156040895,
          "color": "#843c39"
        },
        {
          "chromosome": "Y",
          "startPoint": 1,
          "endPoint": 57227415,
          "color": "#40a35a"
        },
        {
          "chromosome": "M",
          "startPoint": 1,
          "endPoint": 16569,
          "color": "#d6616b"
        }
      ],
      "hg38_chr": [
        {
          "chromosome": "chr1",
          "startPoint": 1,
          "endPoint": 248956422,
          "color": "#1f77b4"
        },
        {
          "chromosome": "chr2",
          "startPoint": 1,
          "endPoint": 242193529,
          "color": "#ff7f0e"
        },
        {
          "chromosome": "chr3",
          "startPoint": 1,
          "endPoint": 198295559,
          "color": "#2ca02c"
        },
        {
          "chromosome": "chr4",
          "startPoint": 1,
          "endPoint": 190214555,
          "color": "#d62728"
        },
        {
          "chromosome": "chr5",
          "startPoint": 1,
          "endPoint": 181538259,
          "color": "#9467bd"
        },
        {
          "chromosome": "chr6",
          "startPoint": 1,
          "endPoint": 170805979,
          "color": "#8c564b"
        },
        {
          "chromosome": "chr7",
          "startPoint": 1,
          "endPoint": 159345973,
          "color": "#e377c2"
        },
        {
          "chromosome": "chr8",
          "startPoint": 1,
          "endPoint": 145138636,
          "color": "#7f7f7f"
        },
        {
          "chromosome": "chr9",
          "startPoint": 1,
          "endPoint": 138394717,
          "color": "#bcbd22"
        },
        {
          "chromosome": "chr10",
          "startPoint": 1,
          "endPoint": 133797422,
          "color": "#17becf"
        },
        {
          "chromosome": "chr11",
          "startPoint": 1,
          "endPoint": 135086622,
          "color": "#393b79"
        },
        {
          "chromosome": "chr12",
          "startPoint": 1,
          "endPoint": 133275309,
          "color": "#5254a3"
        },
        {
          "chromosome": "chr13",
          "startPoint": 1,
          "endPoint": 114364328,
          "color": "#6b6ecf"
        },
        {
          "chromosome": "chr14",
          "startPoint": 1,
          "endPoint": 107043718,
          "color": "#9c9ede"
        },
        {
          "chromosome": "chr15",
          "startPoint": 1,
          "endPoint": 101991189,
          "color": "#637939"
        },
        {
          "chromosome": "chr16",
          "startPoint": 1,
          "endPoint": 90338345,
          "color": "#8ca252"
        },
        {
          "chromosome": "chr17",
          "startPoint": 1,
          "endPoint": 83257441,
          "color": "#b5cf6b"
        },
        {
          "chromosome": "chr18",
          "startPoint": 1,
          "endPoint": 80373285,
          "color": "#cedb9c"
        },
        {
          "chromosome": "chr19",
          "startPoint": 1,
          "endPoint": 58617616,
          "color": "#8c6d31"
        },
        {
          "chromosome": "chr20",
          "startPoint": 1,
          "endPoint": 64444167,
          "color": "#bd9e39"
        },
        {
          "chromosome": "chr21",
          "startPoint": 1,
          "endPoint": 46709983,
          "color": "#e7ba52"
        },
        {
          "chromosome": "chr22",
          "startPoint": 1,
          "endPoint": 50818468,
          "color": "#e7cb94"
        },
        {
          "chromosome": "chrX",
          "startPoint": 1,
          "endPoint": 156040895,
          "color": "#843c39"
        },
        {
          "chromosome": "Y",
          "startPoint": 1,
          "endPoint": 57227415,
          "color": "#40a35a"
        },
        {
          "chromosome": "M",
          "startPoint": 1,
          "endPoint": 16569,
          "color": "#d6616b"
        }
      ],
      "covid19": [
        {
          "chromosome": "NC_045512.2",
          "startPoint": 1,
          "endPoint": 29903,
          "color": "#1f77b4"
        }
      ]
    }
  },
  "geography": [
    {
      "id": 1,
      "title": "Andorra",
      "latitude": 42.546245,
      "longitude": 1.601554,
      "code": "AD",
      "fill": "#2260D9"
    },
    {
      "id": 2,
      "title": "United Arab Emirates",
      "latitude": 23.424076,
      "longitude": 53.847818,
      "code": "AE",
      "fill": "#4236C0"
    },
    {
      "id": 3,
      "title": "Afghanistan",
      "latitude": 33.93911,
      "longitude": 67.709953,
      "code": "AF",
      "fill": "#CFEC33"
    },
    {
      "id": 4,
      "title": "Antigua and Barbuda",
      "latitude": 17.060816,
      "longitude": -61.796428,
      "code": "AG",
      "fill": "#14D984"
    },
    {
      "id": 5,
      "title": "Anguilla",
      "latitude": 18.220554,
      "longitude": -63.068615,
      "code": "AI",
      "fill": "#A7FE20"
    },
    {
      "id": 6,
      "title": "Albania",
      "latitude": 41.153332,
      "longitude": 20.168331,
      "code": "AL",
      "fill": "#DD0E73"
    },
    {
      "id": 7,
      "title": "Armenia",
      "latitude": 40.069099,
      "longitude": 45.038189,
      "code": "AM",
      "fill": "#C5C669"
    },
    {
      "id": 8,
      "title": "Netherlands Antilles",
      "latitude": 12.226079,
      "longitude": -69.060087,
      "code": "AN",
      "fill": "#614944"
    },
    {
      "id": 9,
      "title": "Angola",
      "latitude": -11.202692,
      "longitude": 17.873887,
      "code": "AO",
      "fill": "#77CB7F"
    },
    {
      "id": 10,
      "title": "Antarctica",
      "latitude": -75.250973,
      "longitude": -0.071389,
      "code": "AQ",
      "fill": "#FA5D89"
    },
    {
      "id": 11,
      "title": "Argentina",
      "latitude": -38.416097,
      "longitude": -63.616672,
      "code": "AR",
      "fill": "#E68835"
    },
    {
      "id": 12,
      "title": "American Samoa",
      "latitude": -14.270972,
      "longitude": -170.132217,
      "code": "AS",
      "fill": "#57EC55"
    },
    {
      "id": 13,
      "title": "Austria",
      "latitude": 47.516231,
      "longitude": 14.550072,
      "code": "AT",
      "fill": "#B7BD4B"
    },
    {
      "id": 14,
      "title": "Australia",
      "latitude": -25.274398,
      "longitude": 133.775136,
      "code": "AU",
      "fill": "#529AB7"
    },
    {
      "id": 15,
      "title": "Aruba",
      "latitude": 12.52111,
      "longitude": -69.968338,
      "code": "AW",
      "fill": "#92970F"
    },
    {
      "id": 16,
      "title": "Azerbaijan",
      "latitude": 40.143105,
      "longitude": 47.576927,
      "code": "AZ",
      "fill": "#B5B846"
    },
    {
      "id": 17,
      "title": "Bosnia and Herzegovina",
      "latitude": 43.915886,
      "longitude": 17.679076,
      "code": "BA",
      "fill": "#C0BA47"
    },
    {
      "id": 18,
      "title": "Barbados",
      "latitude": 13.193887,
      "longitude": -59.543198,
      "code": "BB",
      "fill": "#154875"
    },
    {
      "id": 19,
      "title": "Bangladesh",
      "latitude": 23.684994,
      "longitude": 90.356331,
      "code": "BD",
      "fill": "#3F56CE"
    },
    {
      "id": 20,
      "title": "Belgium",
      "latitude": 50.503887,
      "longitude": 4.469936,
      "code": "BE",
      "fill": "#96BD60"
    },
    {
      "id": 21,
      "title": "Burkina Faso",
      "latitude": 12.238333,
      "longitude": -1.561593,
      "code": "BF",
      "fill": "#01821F"
    },
    {
      "id": 22,
      "title": "Bulgaria",
      "latitude": 42.733883,
      "longitude": 25.48583,
      "code": "BG",
      "fill": "#DBAC3D"
    },
    {
      "id": 23,
      "title": "Bahrain",
      "latitude": 25.930414,
      "longitude": 50.637772,
      "code": "BH",
      "fill": "#482AB6"
    },
    {
      "id": 24,
      "title": "Burundi",
      "latitude": -3.373056,
      "longitude": 29.918886,
      "code": "BI",
      "fill": "#0FD97C"
    },
    {
      "id": 25,
      "title": "Benin",
      "latitude": 9.30769,
      "longitude": 2.315834,
      "code": "BJ",
      "fill": "#69B091"
    },
    {
      "id": 26,
      "title": "Bermuda",
      "latitude": 32.321384,
      "longitude": -64.75737,
      "code": "BM",
      "fill": "#B3519B"
    },
    {
      "id": 27,
      "title": "Brunei",
      "latitude": 4.535277,
      "longitude": 114.727669,
      "code": "BN",
      "fill": "#4784C8"
    },
    {
      "id": 28,
      "title": "Bolivia",
      "latitude": -16.290154,
      "longitude": -63.588653,
      "code": "BO",
      "fill": "#1C7D84"
    },
    {
      "id": 29,
      "title": "Brazil",
      "latitude": -14.235004,
      "longitude": -51.92528,
      "code": "BR",
      "fill": "#E67A32"
    },
    {
      "id": 30,
      "title": "Bahamas",
      "latitude": 25.03428,
      "longitude": -77.39628,
      "code": "BS",
      "fill": "#CC62B7"
    },
    {
      "id": 31,
      "title": "Bhutan",
      "latitude": 27.514162,
      "longitude": 90.433601,
      "code": "BT",
      "fill": "#CC87DC"
    },
    {
      "id": 32,
      "title": "Bouvet Island",
      "latitude": -54.423199,
      "longitude": 3.413194,
      "code": "BV",
      "fill": "#16DB58"
    },
    {
      "id": 33,
      "title": "Botswana",
      "latitude": -22.328474,
      "longitude": 24.684866,
      "code": "BW",
      "fill": "#98D153"
    },
    {
      "id": 34,
      "title": "Belarus",
      "latitude": 53.709807,
      "longitude": 27.953389,
      "code": "BY",
      "fill": "#DCC211"
    },
    {
      "id": 35,
      "title": "Belize",
      "latitude": 17.189877,
      "longitude": -88.49765,
      "code": "BZ",
      "fill": "#E04A29"
    },
    {
      "id": 36,
      "title": "Canada",
      "latitude": 56.130366,
      "longitude": -106.346771,
      "code": "CA",
      "fill": "#DB2823"
    },
    {
      "id": 37,
      "title": "Cocos [Keeling] Islands",
      "latitude": -12.164165,
      "longitude": 96.870956,
      "code": "CC",
      "fill": "#5A9DA2"
    },
    {
      "id": 38,
      "title": "Congo [DRC]",
      "latitude": -4.038333,
      "longitude": 21.758664,
      "code": "CD",
      "fill": "#5BA6A6"
    },
    {
      "id": 39,
      "title": "Central African Republic",
      "latitude": 6.611111,
      "longitude": 20.939444,
      "code": "CF",
      "fill": "#1C3A5A"
    },
    {
      "id": 40,
      "title": "Congo [Republic]",
      "latitude": -0.228021,
      "longitude": 15.827659,
      "code": "CG",
      "fill": "#7A630F"
    },
    {
      "id": 41,
      "title": "Switzerland",
      "latitude": 46.818188,
      "longitude": 8.227512,
      "code": "CH",
      "fill": "#A0BE59"
    },
    {
      "id": 42,
      "title": "Côte d'Ivoire",
      "latitude": 7.539989,
      "longitude": -5.54708,
      "code": "CI",
      "fill": "#B14BCE"
    },
    {
      "id": 43,
      "title": "Cook Islands",
      "latitude": -21.236736,
      "longitude": -159.777671,
      "code": "CK",
      "fill": "#6E0155"
    },
    {
      "id": 44,
      "title": "Chile",
      "latitude": -35.675147,
      "longitude": -71.542969,
      "code": "CL",
      "fill": "#E67F33"
    },
    {
      "id": 45,
      "title": "Cameroon",
      "latitude": 7.369722,
      "longitude": 12.354722,
      "code": "CM",
      "fill": "#459847"
    },
    {
      "id": 46,
      "title": "China",
      "latitude": 35.86166,
      "longitude": 104.195397,
      "code": "CN",
      "fill": "#4270CE"
    },
    {
      "id": 47,
      "title": "Colombia",
      "latitude": 4.570868,
      "longitude": -74.297333,
      "code": "CO",
      "fill": "#E56B2F"
    },
    {
      "id": 48,
      "title": "Costa Rica",
      "latitude": 9.748917,
      "longitude": -83.753428,
      "code": "CR",
      "fill": "#E1552B"
    },
    {
      "id": 49,
      "title": "Cuba",
      "latitude": 21.521757,
      "longitude": -77.781167,
      "code": "CU",
      "fill": "#DD3325"
    },
    {
      "id": 50,
      "title": "Cape Verde",
      "latitude": 16.002082,
      "longitude": -24.013197,
      "code": "CV",
      "fill": "#C91CBA"
    },
    {
      "id": 51,
      "title": "Christmas Island",
      "latitude": -10.447525,
      "longitude": 105.690449,
      "code": "CX",
      "fill": "#C97F46"
    },
    {
      "id": 52,
      "title": "Cyprus",
      "latitude": 35.126413,
      "longitude": 33.429859,
      "code": "CY",
      "fill": "#E49838"
    },
    {
      "id": 53,
      "title": "Czech Republic",
      "latitude": 49.817492,
      "longitude": 15.472962,
      "code": "CZ",
      "fill": "#BDBB48"
    },
    {
      "id": 54,
      "title": "Germany",
      "latitude": 51.165691,
      "longitude": 10.451526,
      "code": "DE",
      "fill": "#AABD52"
    },
    {
      "id": 55,
      "title": "Djibouti",
      "latitude": 11.825138,
      "longitude": 42.590275,
      "code": "DJ",
      "fill": "#E2E806"
    },
    {
      "id": 56,
      "title": "Denmark",
      "latitude": 56.26392,
      "longitude": 9.501785,
      "code": "DK",
      "fill": "#A6BE54"
    },
    {
      "id": 57,
      "title": "Dominica",
      "latitude": 15.414999,
      "longitude": -61.370976,
      "code": "DM",
      "fill": "#82F235"
    },
    {
      "id": 58,
      "title": "Dominican Republic",
      "latitude": 18.735693,
      "longitude": -70.162651,
      "code": "DO",
      "fill": "#DE3E27"
    },
    {
      "id": 59,
      "title": "Algeria",
      "latitude": 28.033886,
      "longitude": 1.659626,
      "code": "DZ",
      "fill": "#7AB77C"
    },
    {
      "id": 60,
      "title": "Ecuador",
      "latitude": -1.831239,
      "longitude": -78.183406,
      "code": "EC",
      "fill": "#E67130"
    },
    {
      "id": 61,
      "title": "Estonia",
      "latitude": 58.595272,
      "longitude": 25.013607,
      "code": "EE",
      "fill": "#09CB11"
    },
    {
      "id": 62,
      "title": "Egypt",
      "latitude": 26.820553,
      "longitude": 30.802498,
      "code": "EG",
      "fill": "#77B67F"
    },
    {
      "id": 63,
      "title": "Western Sahara",
      "latitude": 24.215527,
      "longitude": -12.885834,
      "code": "EH",
      "fill": "#43C848"
    },
    {
      "id": 64,
      "title": "Eritrea",
      "latitude": 15.179384,
      "longitude": 39.782334,
      "code": "ER",
      "fill": "#3E1C0B"
    },
    {
      "id": 65,
      "title": "Spain",
      "latitude": 40.463667,
      "longitude": -3.74922,
      "code": "ES",
      "fill": "#8CBB69"
    },
    {
      "id": 66,
      "title": "Ethiopia",
      "latitude": 9.145,
      "longitude": 40.489673,
      "code": "ET",
      "fill": "#DC68D1"
    },
    {
      "id": 67,
      "title": "Finland",
      "latitude": 61.92411,
      "longitude": 25.748151,
      "code": "FI",
      "fill": "#DFA43B"
    },
    {
      "id": 68,
      "title": "Fiji",
      "latitude": -16.578193,
      "longitude": 179.414413,
      "code": "FJ",
      "fill": "#F70D3C"
    },
    {
      "id": 69,
      "title": "Falkland Islands [Islas Malvinas]",
      "latitude": -51.796253,
      "longitude": -59.523613,
      "code": "FK",
      "fill": "#7B1A47"
    },
    {
      "id": 70,
      "title": "Micronesia",
      "latitude": 7.425554,
      "longitude": 150.550812,
      "code": "FM",
      "fill": "#CD54A7"
    },
    {
      "id": 71,
      "title": "Faroe Islands",
      "latitude": 61.892635,
      "longitude": -6.911806,
      "code": "FO",
      "fill": "#C917EB"
    },
    {
      "id": 72,
      "title": "France",
      "latitude": 46.227638,
      "longitude": 2.213749,
      "code": "FR",
      "fill": "#92BC63"
    },
    {
      "id": 73,
      "title": "Gabon",
      "latitude": -0.803689,
      "longitude": 11.609444,
      "code": "GA",
      "fill": "#37A1FB"
    },
    {
      "id": 74,
      "title": "United Kingdom",
      "latitude": 55.378051,
      "longitude": -3.435973,
      "code": "GB",
      "fill": "#8FBC66"
    },
    {
      "id": 75,
      "title": "Grenada",
      "latitude": 12.262776,
      "longitude": -61.604171,
      "code": "GD",
      "fill": "#24BD97"
    },
    {
      "id": 76,
      "title": "Georgia",
      "latitude": 42.315407,
      "longitude": 43.356892,
      "code": "GE",
      "fill": "#4F1FAB"
    },
    {
      "id": 77,
      "title": "French Guiana",
      "latitude": 3.933889,
      "longitude": -53.125782,
      "code": "GF",
      "fill": "#C38399"
    },
    {
      "id": 78,
      "title": "Guernsey",
      "latitude": 49.465691,
      "longitude": -2.585278,
      "code": "GG",
      "fill": "#6AF215"
    },
    {
      "id": 79,
      "title": "Ghana",
      "latitude": 7.946527,
      "longitude": -1.023194,
      "code": "GH",
      "fill": "#64AD98"
    },
    {
      "id": 80,
      "title": "Gibraltar",
      "latitude": 36.137741,
      "longitude": -5.345374,
      "code": "GI",
      "fill": "#68BC21"
    },
    {
      "id": 81,
      "title": "Greenland",
      "latitude": 71.706936,
      "longitude": -42.604303,
      "code": "GL",
      "fill": "#6F7335"
    },
    {
      "id": 82,
      "title": "Gambia",
      "latitude": 13.443182,
      "longitude": -15.310139,
      "code": "GM",
      "fill": "#6EB389"
    },
    {
      "id": 83,
      "title": "Guinea",
      "latitude": 9.945587,
      "longitude": -9.696645,
      "code": "GN",
      "fill": "#32BFC9"
    },
    {
      "id": 84,
      "title": "Guadeloupe",
      "latitude": 16.995971,
      "longitude": -62.067641,
      "code": "GP",
      "fill": "#36AD13"
    },
    {
      "id": 85,
      "title": "Equatorial Guinea",
      "latitude": 1.650801,
      "longitude": 10.267895,
      "code": "GQ",
      "fill": "#163E49"
    },
    {
      "id": 86,
      "title": "Greece",
      "latitude": 39.074208,
      "longitude": 21.824312,
      "code": "GR",
      "fill": "#D3B23F"
    },
    {
      "id": 87,
      "title": "South Georgia and the South Sandwich Islands",
      "latitude": -54.429579,
      "longitude": -36.587909,
      "code": "GS",
      "fill": "#9F2241"
    },
    {
      "id": 88,
      "title": "Guatemala",
      "latitude": 15.783471,
      "longitude": -90.230759,
      "code": "GT",
      "fill": "#E14F2A"
    },
    {
      "id": 89,
      "title": "Guam",
      "latitude": 13.444304,
      "longitude": 144.793731,
      "code": "GU",
      "fill": "#539CB3"
    },
    {
      "id": 90,
      "title": "Guinea-Bissau",
      "latitude": 11.803749,
      "longitude": -15.180413,
      "code": "GW",
      "fill": "#B01A5A"
    },
    {
      "id": 91,
      "title": "Guyana",
      "latitude": 4.860416,
      "longitude": -58.93018,
      "code": "GY",
      "fill": "#016DE2"
    },
    {
      "id": 92,
      "title": "Gaza Strip",
      "latitude": 31.354676,
      "longitude": 34.308825,
      "code": "GZ",
      "fill": "#3EA7A0"
    },
    {
      "id": 93,
      "title": "Hong Kong",
      "latitude": 22.396428,
      "longitude": 114.109497,
      "code": "HK",
      "fill": "#447DCC"
    },
    {
      "id": 94,
      "title": "Heard Island and McDonald Islands",
      "latitude": -53.08181,
      "longitude": 73.504158,
      "code": "HM",
      "fill": "#0B361A"
    },
    {
      "id": 95,
      "title": "Honduras",
      "latitude": 15.199999,
      "longitude": -86.241905,
      "code": "HN",
      "fill": "#9B2586"
    },
    {
      "id": 96,
      "title": "Croatia",
      "latitude": 45.1,
      "longitude": 15.2,
      "code": "HR",
      "fill": "#BABC4A"
    },
    {
      "id": 97,
      "title": "Haiti",
      "latitude": 18.971187,
      "longitude": -72.285215,
      "code": "HT",
      "fill": "#B5061B"
    },
    {
      "id": 98,
      "title": "Hungary",
      "latitude": 47.162494,
      "longitude": 19.503304,
      "code": "HU",
      "fill": "#CCB742"
    },
    {
      "id": 99,
      "title": "Indonesia",
      "latitude": -0.789275,
      "longitude": 113.921327,
      "code": "ID",
      "fill": "#4680CA"
    },
    {
      "id": 100,
      "title": "Ireland",
      "latitude": 53.41291,
      "longitude": -8.24389,
      "code": "IE",
      "fill": "#89BB6B"
    },
    {
      "id": 101,
      "title": "Israel",
      "latitude": 31.046051,
      "longitude": 34.851612,
      "code": "IL",
      "fill": "#5E1D9D"
    },
    {
      "id": 102,
      "title": "Isle of Man",
      "latitude": 54.236107,
      "longitude": -4.548056,
      "code": "IM",
      "fill": "#1C59A1"
    },
    {
      "id": 103,
      "title": "India",
      "latitude": 20.593684,
      "longitude": 78.96288,
      "code": "IN",
      "fill": "#3F47C9"
    },
    {
      "id": 104,
      "title": "British Indian Ocean Territory",
      "latitude": -6.343194,
      "longitude": 71.876519,
      "code": "IO",
      "fill": "#38226D"
    },
    {
      "id": 105,
      "title": "Iraq",
      "latitude": 33.223191,
      "longitude": 43.679291,
      "code": "IQ",
      "fill": "#F0EABA"
    },
    {
      "id": 106,
      "title": "Iran",
      "latitude": 32.427908,
      "longitude": 53.688046,
      "code": "IR",
      "fill": "#4432BD"
    },
    {
      "id": 107,
      "title": "Iceland",
      "latitude": 64.963051,
      "longitude": -19.020835,
      "code": "IS",
      "fill": "#82BA71"
    },
    {
      "id": 108,
      "title": "Italy",
      "latitude": 41.87194,
      "longitude": 12.56738,
      "code": "IT",
      "fill": "#ADBD50"
    },
    {
      "id": 109,
      "title": "Jersey",
      "latitude": 49.214439,
      "longitude": -2.13125,
      "code": "JE",
      "fill": "#ADBC07"
    },
    {
      "id": 110,
      "title": "Jamaica",
      "latitude": 18.109581,
      "longitude": -77.297508,
      "code": "JM",
      "fill": "#DF4428"
    },
    {
      "id": 111,
      "title": "Jordan",
      "latitude": 30.585164,
      "longitude": 36.238414,
      "code": "JO",
      "fill": "#531EA6"
    },
    {
      "id": 112,
      "title": "Japan",
      "latitude": 36.204824,
      "longitude": 138.252924,
      "code": "JP",
      "fill": "#4E95BD"
    },
    {
      "id": 113,
      "title": "Kenya",
      "latitude": -0.023559,
      "longitude": 37.906193,
      "code": "KE",
      "fill": "#5DA8A3"
    },
    {
      "id": 114,
      "title": "Kyrgyzstan",
      "latitude": 41.20438,
      "longitude": 74.766098,
      "code": "KG",
      "fill": "#AAED81"
    },
    {
      "id": 115,
      "title": "Cambodia",
      "latitude": 12.565679,
      "longitude": 104.990963,
      "code": "KH",
      "fill": "#4374CD"
    },
    {
      "id": 116,
      "title": "Kiribati",
      "latitude": -3.370417,
      "longitude": -168.734039,
      "code": "KI",
      "fill": "#D4FC7B"
    },
    {
      "id": 117,
      "title": "Comoros",
      "latitude": -11.875001,
      "longitude": 43.872219,
      "code": "KM",
      "fill": "#9C349B"
    },
    {
      "id": 118,
      "title": "Saint Kitts and Nevis",
      "latitude": 17.357822,
      "longitude": -62.782998,
      "code": "KN",
      "fill": "#5E83F1"
    },
    {
      "id": 119,
      "title": "North Korea",
      "latitude": 40.339852,
      "longitude": 127.510093,
      "code": "KP",
      "fill": "#71ED23"
    },
    {
      "id": 120,
      "title": "South Korea",
      "latitude": 35.907757,
      "longitude": 127.766922,
      "code": "KR",
      "fill": "#4C91BF"
    },
    {
      "id": 121,
      "title": "Kuwait",
      "latitude": 29.31166,
      "longitude": 47.481766,
      "code": "KW",
      "fill": "#4A27B2"
    },
    {
      "id": 122,
      "title": "Cayman Islands",
      "latitude": 19.513469,
      "longitude": -80.566956,
      "code": "KY",
      "fill": "#E716E7"
    },
    {
      "id": 123,
      "title": "Kazakhstan",
      "latitude": 48.019573,
      "longitude": 66.923684,
      "code": "KZ",
      "fill": "#403EC6"
    },
    {
      "id": 124,
      "title": "Laos",
      "latitude": 19.85627,
      "longitude": 102.495496,
      "code": "LA",
      "fill": "#A386C0"
    },
    {
      "id": 125,
      "title": "Lebanon",
      "latitude": 33.854721,
      "longitude": 35.862285,
      "code": "LB",
      "fill": "#581DA2"
    },
    {
      "id": 126,
      "title": "Saint Lucia",
      "latitude": 13.909444,
      "longitude": -60.978893,
      "code": "LC",
      "fill": "#1E9A3D"
    },
    {
      "id": 127,
      "title": "Liechtenstein",
      "latitude": 47.166,
      "longitude": 9.555373,
      "code": "LI",
      "fill": "#76C131"
    },
    {
      "id": 128,
      "title": "Sri Lanka",
      "latitude": 7.873054,
      "longitude": 80.771797,
      "code": "LK",
      "fill": "#3F4CCB"
    },
    {
      "id": 129,
      "title": "Liberia",
      "latitude": 6.428055,
      "longitude": -9.429499,
      "code": "LR",
      "fill": "#C702D3"
    },
    {
      "id": 130,
      "title": "Lesotho",
      "latitude": -29.609988,
      "longitude": 28.233608,
      "code": "LS",
      "fill": "#82BE00"
    },
    {
      "id": 131,
      "title": "Lithuania",
      "latitude": 55.169438,
      "longitude": 23.881275,
      "code": "LT",
      "fill": "#21406C"
    },
    {
      "id": 132,
      "title": "Luxembourg",
      "latitude": 49.815273,
      "longitude": 6.129583,
      "code": "LU",
      "fill": "#9CBE5B"
    },
    {
      "id": 133,
      "title": "Latvia",
      "latitude": 56.879635,
      "longitude": 24.603189,
      "code": "LV",
      "fill": "#DDAA3C"
    },
    {
      "id": 134,
      "title": "Libya",
      "latitude": 26.3351,
      "longitude": 17.228331,
      "code": "LY",
      "fill": "#D77432"
    },
    {
      "id": 135,
      "title": "Morocco",
      "latitude": 31.791702,
      "longitude": -7.09262,
      "code": "MA",
      "fill": "#7CB878"
    },
    {
      "id": 136,
      "title": "Monaco",
      "latitude": 43.750298,
      "longitude": 7.412841,
      "code": "MC",
      "fill": "#F41E1B"
    },
    {
      "id": 137,
      "title": "Moldova",
      "latitude": 47.411631,
      "longitude": 28.369885,
      "code": "MD",
      "fill": "#E29E39"
    },
    {
      "id": 138,
      "title": "Montenegro",
      "latitude": 42.708678,
      "longitude": 19.37439,
      "code": "ME",
      "fill": "#CAB843"
    },
    {
      "id": 139,
      "title": "Madagascar",
      "latitude": -18.766947,
      "longitude": 46.869107,
      "code": "MG",
      "fill": "#57A1AD"
    },
    {
      "id": 140,
      "title": "Marshall Islands",
      "latitude": 7.131474,
      "longitude": 171.184478,
      "code": "MH",
      "fill": "#739AC5"
    },
    {
      "id": 141,
      "title": "Macedonia [FYROM]",
      "latitude": 41.608635,
      "longitude": 21.745275,
      "code": "MK",
      "fill": "#D1B340"
    },
    {
      "id": 142,
      "title": "Mali",
      "latitude": 17.570692,
      "longitude": -3.996166,
      "code": "ML",
      "fill": "#74B582"
    },
    {
      "id": 143,
      "title": "Myanmar [Burma]",
      "latitude": 21.913965,
      "longitude": 95.956223,
      "code": "MM",
      "fill": "#3E5ACF"
    },
    {
      "id": 144,
      "title": "Mongolia",
      "latitude": 46.862496,
      "longitude": 103.846656,
      "code": "MN",
      "fill": "#4067CF"
    },
    {
      "id": 145,
      "title": "Macau",
      "latitude": 22.198745,
      "longitude": 113.543873,
      "code": "MO",
      "fill": "#AD95BE"
    },
    {
      "id": 146,
      "title": "Northern Mariana Islands",
      "latitude": 17.33083,
      "longitude": 145.38469,
      "code": "MP",
      "fill": "#453958"
    },
    {
      "id": 147,
      "title": "Martinique",
      "latitude": 14.641528,
      "longitude": -61.024174,
      "code": "MQ",
      "fill": "#51F478"
    },
    {
      "id": 148,
      "title": "Mauritania",
      "latitude": 21.00789,
      "longitude": -10.940835,
      "code": "MR",
      "fill": "#3DA76D"
    },
    {
      "id": 149,
      "title": "Montserrat",
      "latitude": 16.742498,
      "longitude": -62.187366,
      "code": "MS",
      "fill": "#45E2DF"
    },
    {
      "id": 150,
      "title": "Malta",
      "latitude": 35.937496,
      "longitude": 14.375416,
      "code": "MT",
      "fill": "#A0B38B"
    },
    {
      "id": 151,
      "title": "Mauritius",
      "latitude": -20.348404,
      "longitude": 57.552152,
      "code": "MU",
      "fill": "#FD3DF7"
    },
    {
      "id": 152,
      "title": "Maldives",
      "latitude": 3.202778,
      "longitude": 73.22068,
      "code": "MV",
      "fill": "#934F3E"
    },
    {
      "id": 153,
      "title": "Malawi",
      "latitude": -13.254308,
      "longitude": 34.301525,
      "code": "MW",
      "fill": "#0CBF7F"
    },
    {
      "id": 154,
      "title": "Mexico",
      "latitude": 23.634501,
      "longitude": -102.552784,
      "code": "MX",
      "fill": "#DE3926"
    },
    {
      "id": 155,
      "title": "Malaysia",
      "latitude": 4.210484,
      "longitude": 101.975766,
      "code": "MY",
      "fill": "#3F63CF"
    },
    {
      "id": 156,
      "title": "Mozambique",
      "latitude": -18.665695,
      "longitude": 35.529562,
      "code": "MZ",
      "fill": "#A75CD0"
    },
    {
      "id": 157,
      "title": "Namibia",
      "latitude": -22.95764,
      "longitude": 18.49041,
      "code": "NA",
      "fill": "#122EA9"
    },
    {
      "id": 158,
      "title": "New Caledonia",
      "latitude": -20.904305,
      "longitude": 165.618042,
      "code": "NC",
      "fill": "#D2D887"
    },
    {
      "id": 159,
      "title": "Niger",
      "latitude": 17.607789,
      "longitude": 8.081666,
      "code": "NE",
      "fill": "#9AAEDB"
    },
    {
      "id": 160,
      "title": "Norfolk Island",
      "latitude": -29.040835,
      "longitude": 167.954712,
      "code": "NF",
      "fill": "#64D2BC"
    },
    {
      "id": 161,
      "title": "Nigeria",
      "latitude": 9.081999,
      "longitude": 8.675277,
      "code": "NG",
      "fill": "#6CB28D"
    },
    {
      "id": 162,
      "title": "Nicaragua",
      "latitude": 12.865416,
      "longitude": -85.207229,
      "code": "NI",
      "fill": "#B10E3D"
    },
    {
      "id": 163,
      "title": "Netherlands",
      "latitude": 52.132633,
      "longitude": 5.291266,
      "code": "NL",
      "fill": "#99BD5D"
    },
    {
      "id": 164,
      "title": "Norway",
      "latitude": 60.472024,
      "longitude": 8.468946,
      "code": "NO",
      "fill": "#A3BE57"
    },
    {
      "id": 165,
      "title": "Nepal",
      "latitude": 28.394857,
      "longitude": 84.124008,
      "code": "NP",
      "fill": "#3F51CC"
    },
    {
      "id": 166,
      "title": "Nauru",
      "latitude": -0.522778,
      "longitude": 166.931503,
      "code": "NR",
      "fill": "#EE0F4A"
    },
    {
      "id": 167,
      "title": "Niue",
      "latitude": -19.054445,
      "longitude": -169.867233,
      "code": "NU",
      "fill": "#F64E2E"
    },
    {
      "id": 168,
      "title": "New Zealand",
      "latitude": -40.900557,
      "longitude": 174.885971,
      "code": "NZ",
      "fill": "#5097BA"
    },
    {
      "id": 169,
      "title": "Oman",
      "latitude": 21.512583,
      "longitude": 55.923255,
      "code": "OM",
      "fill": "#4039C4"
    },
    {
      "id": 170,
      "title": "Panama",
      "latitude": 8.537981,
      "longitude": -80.782127,
      "code": "PA",
      "fill": "#E25A2C"
    },
    {
      "id": 171,
      "title": "Peru",
      "latitude": -9.189967,
      "longitude": -75.015152,
      "code": "PE",
      "fill": "#E67631"
    },
    {
      "id": 172,
      "title": "French Polynesia",
      "latitude": -17.679742,
      "longitude": -149.406843,
      "code": "PF",
      "fill": "#E6F942"
    },
    {
      "id": 173,
      "title": "Papua New Guinea",
      "latitude": -6.314993,
      "longitude": 143.95555,
      "code": "PG",
      "fill": "#348D3F"
    },
    {
      "id": 174,
      "title": "Philippines",
      "latitude": 12.879721,
      "longitude": 121.774017,
      "code": "PH",
      "fill": "#4A8BC3"
    },
    {
      "id": 175,
      "title": "Pakistan",
      "latitude": 30.375321,
      "longitude": 69.345116,
      "code": "PK",
      "fill": "#3F43C7"
    },
    {
      "id": 176,
      "title": "Poland",
      "latitude": 51.919438,
      "longitude": 19.145136,
      "code": "PL",
      "fill": "#C3BA46"
    },
    {
      "id": 177,
      "title": "Saint Pierre and Miquelon",
      "latitude": 46.941936,
      "longitude": -56.27111,
      "code": "PM",
      "fill": "#509F45"
    },
    {
      "id": 178,
      "title": "Pitcairn Islands",
      "latitude": -24.703615,
      "longitude": -127.439308,
      "code": "PN",
      "fill": "#3CCB20"
    },
    {
      "id": 179,
      "title": "Puerto Rico",
      "latitude": 18.220833,
      "longitude": -66.590149,
      "code": "PR",
      "fill": "#4D49D6"
    },
    {
      "id": 180,
      "title": "Palestinian Territories",
      "latitude": 31.952162,
      "longitude": 35.233154,
      "code": "PS",
      "fill": "#4738E3"
    },
    {
      "id": 181,
      "title": "Portugal",
      "latitude": 39.399872,
      "longitude": -8.224454,
      "code": "PT",
      "fill": "#85BA6E"
    },
    {
      "id": 182,
      "title": "Palau",
      "latitude": 7.51498,
      "longitude": 134.58252,
      "code": "PW",
      "fill": "#DDF55C"
    },
    {
      "id": 183,
      "title": "Paraguay",
      "latitude": -23.442503,
      "longitude": -58.443832,
      "code": "PY",
      "fill": "#BECB30"
    },
    {
      "id": 184,
      "title": "Qatar",
      "latitude": 25.354826,
      "longitude": 51.183884,
      "code": "QA",
      "fill": "#E44A5F"
    },
    {
      "id": 185,
      "title": "Réunion",
      "latitude": -21.115141,
      "longitude": 55.536384,
      "code": "RE",
      "fill": "#9F644B"
    },
    {
      "id": 186,
      "title": "Romania",
      "latitude": 45.943161,
      "longitude": 24.96676,
      "code": "RO",
      "fill": "#D8AE3E"
    },
    {
      "id": 187,
      "title": "Serbia",
      "latitude": 44.016521,
      "longitude": 21.005859,
      "code": "RS",
      "fill": "#CFB541"
    },
    {
      "id": 188,
      "title": "Russia",
      "latitude": 61.52401,
      "longitude": 105.318756,
      "code": "RU",
      "fill": "#E68C36"
    },
    {
      "id": 189,
      "title": "Rwanda",
      "latitude": -1.940278,
      "longitude": 29.873888,
      "code": "RW",
      "fill": "#30944D"
    },
    {
      "id": 190,
      "title": "Saudi Arabia",
      "latitude": 23.885942,
      "longitude": 45.079162,
      "code": "SA",
      "fill": "#4D23AE"
    },
    {
      "id": 191,
      "title": "Solomon Islands",
      "latitude": -9.64571,
      "longitude": 160.156194,
      "code": "SB",
      "fill": "#052F38"
    },
    {
      "id": 192,
      "title": "Seychelles",
      "latitude": -4.679574,
      "longitude": 55.491977,
      "code": "SC",
      "fill": "#22824A"
    },
    {
      "id": 193,
      "title": "Sudan",
      "latitude": 12.862807,
      "longitude": 30.217636,
      "code": "SD",
      "fill": "#4A9F49"
    },
    {
      "id": 194,
      "title": "Sweden",
      "latitude": 60.128161,
      "longitude": 18.643501,
      "code": "SE",
      "fill": "#B4BD4C"
    },
    {
      "id": 195,
      "title": "Singapore",
      "latitude": 1.352083,
      "longitude": 103.819836,
      "code": "SG",
      "fill": "#416CCE"
    },
    {
      "id": 196,
      "title": "Saint Helena",
      "latitude": -24.143474,
      "longitude": -10.030696,
      "code": "SH",
      "fill": "#D284DC"
    },
    {
      "id": 197,
      "title": "Slovenia",
      "latitude": 46.151241,
      "longitude": 14.995463,
      "code": "SI",
      "fill": "#B1BD4E"
    },
    {
      "id": 198,
      "title": "Svalbard and Jan Mayen",
      "latitude": 77.553604,
      "longitude": 23.670272,
      "code": "SJ",
      "fill": "#2C5AAE"
    },
    {
      "id": 199,
      "title": "Slovakia",
      "latitude": 48.669026,
      "longitude": 19.699024,
      "code": "SK",
      "fill": "#C6B944"
    },
    {
      "id": 200,
      "title": "Sierra Leone",
      "latitude": 8.460555,
      "longitude": -11.779889,
      "code": "SL",
      "fill": "#67AE94"
    },
    {
      "id": 201,
      "title": "San Marino",
      "latitude": 43.94236,
      "longitude": 12.457777,
      "code": "SM",
      "fill": "#C5A425"
    },
    {
      "id": 202,
      "title": "Senegal",
      "latitude": 14.497401,
      "longitude": -14.452362,
      "code": "SN",
      "fill": "#71B486"
    },
    {
      "id": 203,
      "title": "Somalia",
      "latitude": 5.152149,
      "longitude": 46.199616,
      "code": "SO",
      "fill": "#010C12"
    },
    {
      "id": 204,
      "title": "Suriname",
      "latitude": 3.919305,
      "longitude": -56.027783,
      "code": "SR",
      "fill": "#E4662E"
    },
    {
      "id": 205,
      "title": "São Tomé and Príncipe",
      "latitude": 0.18636,
      "longitude": 6.613081,
      "code": "ST",
      "fill": "#1917A6"
    },
    {
      "id": 206,
      "title": "El Salvador",
      "latitude": 13.794185,
      "longitude": -88.89653,
      "code": "SV",
      "fill": "#B85273"
    },
    {
      "id": 207,
      "title": "Syria",
      "latitude": 34.802075,
      "longitude": 38.996815,
      "code": "SY",
      "fill": "#EC47E3"
    },
    {
      "id": 208,
      "title": "Swaziland",
      "latitude": -26.522503,
      "longitude": 31.465866,
      "code": "SZ",
      "fill": "#33CE97"
    },
    {
      "id": 209,
      "title": "Turks and Caicos Islands",
      "latitude": 21.694025,
      "longitude": -71.797928,
      "code": "TC",
      "fill": "#D76A8B"
    },
    {
      "id": 210,
      "title": "Chad",
      "latitude": 15.454166,
      "longitude": 18.732207,
      "code": "TD",
      "fill": "#BEFE96"
    },
    {
      "id": 211,
      "title": "French Southern Territories",
      "latitude": -49.280366,
      "longitude": 69.348557,
      "code": "TF",
      "fill": "#54B5AD"
    },
    {
      "id": 212,
      "title": "Togo",
      "latitude": 8.619543,
      "longitude": 0.824782,
      "code": "TG",
      "fill": "#3AACAC"
    },
    {
      "id": 213,
      "title": "Thailand",
      "latitude": 15.870032,
      "longitude": 100.992541,
      "code": "TH",
      "fill": "#3F5FD0"
    },
    {
      "id": 214,
      "title": "Tajikistan",
      "latitude": 38.861034,
      "longitude": 71.276093,
      "code": "TJ",
      "fill": "#3035A5"
    },
    {
      "id": 215,
      "title": "Tokelau",
      "latitude": -8.967363,
      "longitude": -171.855881,
      "code": "TK",
      "fill": "#ACB07B"
    },
    {
      "id": 216,
      "title": "Timor-Leste",
      "latitude": -8.874217,
      "longitude": 125.727539,
      "code": "TL",
      "fill": "#4B8EC1"
    },
    {
      "id": 217,
      "title": "Turkmenistan",
      "latitude": 38.969719,
      "longitude": 59.556278,
      "code": "TM",
      "fill": "#163AED"
    },
    {
      "id": 218,
      "title": "Tunisia",
      "latitude": 33.886917,
      "longitude": 9.537499,
      "code": "TN",
      "fill": "#7FB975"
    },
    {
      "id": 219,
      "title": "Tonga",
      "latitude": -21.178986,
      "longitude": -175.198242,
      "code": "TO",
      "fill": "#857155"
    },
    {
      "id": 220,
      "title": "Turkey",
      "latitude": 38.963745,
      "longitude": 35.243322,
      "code": "TR",
      "fill": "#E69036"
    },
    {
      "id": 221,
      "title": "Trinidad and Tobago",
      "latitude": 10.691803,
      "longitude": -61.222503,
      "code": "TT",
      "fill": "#72D6DA"
    },
    {
      "id": 222,
      "title": "Tuvalu",
      "latitude": -7.109535,
      "longitude": 177.64933,
      "code": "TV",
      "fill": "#072208"
    },
    {
      "id": 223,
      "title": "Taiwan",
      "latitude": 23.69781,
      "longitude": 120.960515,
      "code": "TW",
      "fill": "#4887C6"
    },
    {
      "id": 224,
      "title": "Tanzania",
      "latitude": -6.369028,
      "longitude": 34.888822,
      "code": "TZ",
      "fill": "#A44937"
    },
    {
      "id": 225,
      "title": "Ukraine",
      "latitude": 48.379433,
      "longitude": 31.16558,
      "code": "UA",
      "fill": "#E39B39"
    },
    {
      "id": 226,
      "title": "Uganda",
      "latitude": 1.373333,
      "longitude": 32.290275,
      "code": "UG",
      "fill": "#60AA9F"
    },
    {
      "id": 227,
      "title": "U.S. Minor Outlying Islands",
      "latitude": null,
      "longitude": null,
      "code": "UM",
      "fill": "#5D487D"
    },
    {
      "id": 228,
      "title": "United States",
      "latitude": 37.09024,
      "longitude": -95.712891,
      "code": "US",
      "fill": "#DC2E24"
    },
    {
      "id": 229,
      "title": "Uruguay",
      "latitude": -32.522779,
      "longitude": -55.765835,
      "code": "UY",
      "fill": "#E68334"
    },
    {
      "id": 230,
      "title": "Uzbekistan",
      "latitude": 41.377491,
      "longitude": 64.585262,
      "code": "UZ",
      "fill": "#40CBA9"
    },
    {
      "id": 231,
      "title": "Vatican City",
      "latitude": 41.902916,
      "longitude": 12.453389,
      "code": "VA",
      "fill": "#6D206B"
    },
    {
      "id": 232,
      "title": "Saint Vincent and the Grenadines",
      "latitude": 12.984305,
      "longitude": -61.287228,
      "code": "VC",
      "fill": "#D2C052"
    },
    {
      "id": 233,
      "title": "Venezuela",
      "latitude": 6.42375,
      "longitude": -66.58973,
      "code": "VE",
      "fill": "#E3602D"
    },
    {
      "id": 234,
      "title": "British Virgin Islands",
      "latitude": 18.420695,
      "longitude": -64.639968,
      "code": "VG",
      "fill": "#010283"
    },
    {
      "id": 235,
      "title": "U.S. Virgin Islands",
      "latitude": 18.335765,
      "longitude": -64.896335,
      "code": "VI",
      "fill": "#1AB0DE"
    },
    {
      "id": 236,
      "title": "Vietnam",
      "latitude": 14.058324,
      "longitude": 108.277199,
      "code": "VN",
      "fill": "#4379CD"
    },
    {
      "id": 237,
      "title": "Vanuatu",
      "latitude": -15.376706,
      "longitude": 166.959158,
      "code": "VU",
      "fill": "#F8156D"
    },
    {
      "id": 238,
      "title": "Wallis and Futuna",
      "latitude": -13.768752,
      "longitude": -177.156097,
      "code": "WF",
      "fill": "#8DFD01"
    },
    {
      "id": 239,
      "title": "Samoa",
      "latitude": -13.759029,
      "longitude": -172.104629,
      "code": "WS",
      "fill": "#0CB0AA"
    },
    {
      "id": 240,
      "title": "Kosovo",
      "latitude": 42.602636,
      "longitude": 20.902977,
      "code": "XK",
      "fill": "#7246A2"
    },
    {
      "id": 241,
      "title": "Yemen",
      "latitude": 15.552727,
      "longitude": 48.516388,
      "code": "YE",
      "fill": "#D0FC7B"
    },
    {
      "id": 242,
      "title": "Mayotte",
      "latitude": -12.8275,
      "longitude": 45.166244,
      "code": "YT",
      "fill": "#36E257"
    },
    {
      "id": 243,
      "title": "South Africa",
      "latitude": -30.559482,
      "longitude": 22.937506,
      "code": "ZA",
      "fill": "#559FB0"
    },
    {
      "id": 244,
      "title": "Zambia",
      "latitude": -13.133897,
      "longitude": 27.849332,
      "code": "ZM",
      "fill": "#59A4AA"
    },
    {
      "id": 245,
      "title": "Zimbabwe",
      "latitude": -19.015438,
      "longitude": 29.154857,
      "code": "ZW",
      "fill": "#FC1B70"
    }
  ],
  "higlassServer": "http://higlass.io/",
  "geneAnnotations": {
    "hg19": "OHJakQICQD6gTD7skx4EWA",
    "hg38": "P0PLbQMwTYGy-5uPIQid7A"
  }
}
